City_ID,City,Lat,Lng,Max Temp,Humidity,Cloudiness,Wind Speed,Country,Date
0,bambous virieux,-20.347199500000002,57.76474767388835,81.52,78,40,17.27,MU,1675785551
1,naze,5.4519997,7.0566745,98.91,24,38,3.31,NG,1675785551
2,mar del plata,-37.9977225,-57.5482703,76.91,80,100,13.0,AR,1675785552
3,mataura,-46.192734,168.8642685,51.48,61,74,5.5,NZ,1675785553
4,deputatskiy,54.8408485,61.1269918,3.51,98,97,4.32,RU,1675785553
5,raciu,44.8179068,25.4410647,28.06,73,100,3.36,RO,1675785554
6,fort-shevchenko,44.508556,50.261929,40.3,73,100,24.27,KZ,1675785554
7,ushuaia,-54.806115899999995,-68.3184972880496,53.26,54,40,8.05,AR,1675785555
8,constitucion,-35.3318306,-72.4118998,72.01,52,2,3.78,CL,1675785555
9,qaanaaq,77.4686357,-69.2222746,-23.26,72,97,5.99,GL,1675785556
10,aklavik,68.2182579,-135.013585,-23.8,76,75,5.75,CA,1675785557
11,vardo,70.3308174,30.961751972265887,36.28,75,0,21.85,NO,1675785557
12,mahebourg,-20.4111041,57.7060616,81.34,78,40,17.27,MU,1675785558
13,kruszwica,52.6743797,18.3254766,30.81,89,86,3.96,PL,1675785558
14,comodoro rivadavia,-45.8632024,-67.4752615,75.65,31,0,11.5,AR,1675785559
15,mandalgovi,45.7630435,106.2704145,5.58,93,10,4.85,MN,1675785560
16,port alfred,-33.5981844,26.8914772,73.06,88,86,4.0,ZA,1675785561
17,fertod,47.6216348,16.8645834,30.63,52,1,6.44,HU,1675785561
18,atuona,-9.8037347,-139.0425737,79.27,71,8,17.4,FR,1675785562
19,kodiak,57.79,-152.4072222,29.71,74,0,11.5,US,1675785441
20,menongue,-14.6610713,17.6820336,72.03,77,98,5.1,AO,1675785563
21,vaini,-21.1925671,-175.1772797,77.29,94,75,8.05,TO,1675785563
22,hermanus,-34.4175,19.2361111,70.84,74,100,11.99,ZA,1675785564
23,pevek,69.7028171,170.2746851,-24.27,99,100,2.51,RU,1675785565
24,kavaratti,10.5672203,72.6394636,80.78,70,97,11.7,IN,1675785565
25,pisco,-13.7099813,-76.2029793,75.09,88,0,10.36,PE,1675785566
26,thompson,55.743347,-97.863464,-16.42,76,75,0.0,CA,1675785566
27,kudahuvadhoo,2.6704688,72.89060791131976,81.19,75,93,9.26,MV,1675785567
28,hilo,19.7073734,-155.08158,72.55,89,100,1.99,US,1675785568
29,luderitz,-26.6500086,15.157266,74.79,63,0,29.15,NA,1675785568
30,albany,42.6511674,-73.754968,37.76,58,33,3.0,US,1675785569
31,solnechnyy,50.723808,136.64006,-6.99,99,100,3.83,RU,1675785569
32,ambikapur,23.1226343,83.1981886,61.83,32,0,3.51,IN,1675785570
33,mount gambier,-37.8246698,140.7820067624113,54.5,88,79,7.11,AU,1675785571
34,xalpatlahuac,17.470556,-98.606111,71.8,46,0,0.36,MX,1675785571
35,dunedin,-45.8740984,170.5035755,53.55,70,92,9.4,NZ,1675785572
36,cidreira,-30.1657063,-50.218331,80.01,61,2,9.31,BR,1675785572
37,arraial do cabo,-22.9662839,-42.024427,85.98,70,40,9.22,BR,1675785573
38,takoradi,4.887401,-1.7519316,82.99,72,25,11.56,GH,1675785573
39,busselton,-33.644499,115.3488754,62.55,90,0,12.8,AU,1675785574
40,avera,43.3896226,-0.1768284,45.18,75,20,8.05,FR,1675785574
41,kurayoshi,35.430166,133.825525,42.66,85,76,2.19,JP,1675785575
42,airai,-8.92655,125.40922,61.65,92,72,1.99,TL,1675785576
43,sobolevo,55.5204405,38.7062515,22.95,99,62,1.57,RU,1675785576
44,barrow,71.2905556,-156.788611,-14.78,84,20,5.75,US,1675785577
45,nikolskoye,59.7034799,30.7861084,28.29,93,87,8.3,RU,1675785577
46,carnarvon,-24.8826131,113.6576486,76.64,71,2,21.79,AU,1675785578
47,suzun,53.783924,82.316231,6.03,97,99,4.47,RU,1675785578
48,yeniseysk,58.4532212,92.1748169,13.78,96,100,4.74,RU,1675785579
49,znamenskoye,43.677269,45.128799,27.9,96,100,9.13,RU,1675785579
50,ponta do sol,32.681067,-17.104073,65.41,59,51,7.16,PT,1675785580
51,port elizabeth,-33.9617051,25.6207519,77.11,69,20,16.11,ZA,1675785580
52,mantua,45.1566683,10.7917191,44.19,59,5,1.01,IT,1675785581
53,rikitea,-23.1229544,-134.9680141,78.87,72,37,11.23,FR,1675785582
54,east london,-33.0191604,27.8998573,74.55,94,40,8.05,ZA,1675785582
55,juba,4.8459246,31.5959173,95.02,12,58,8.21,SS,1675785583
56,barentsburg,78.065362,14.2172367,24.4,83,100,25.93,NO,1675785583
57,ancud,-41.8682162,-73.8287225,62.89,67,1,5.91,CL,1675785584
58,laredo,27.5236998,-99.497352,70.07,78,100,13.8,US,1675785584
59,dikson,73.5083894,80.5123816,-19.34,95,77,14.61,RU,1675785585
60,guerrero negro,27.9709506,-114.036389,59.49,32,6,7.31,MX,1675785586
61,podgornoye,43.578323,45.445011,25.79,96,100,10.29,RU,1675785587
62,valleyview,55.066667,-117.283333,24.76,68,84,6.91,CA,1675785587
63,santa cruz do rio pardo,-22.9060715,-49.6277378,73.62,84,100,3.56,BR,1675785588
64,punta arenas,-53.1625688,-70.907822,55.69,54,75,12.66,CL,1675785588
65,kruisfontein,-34.0119558,24.7433295,73.99,74,98,14.67,ZA,1675785589
66,trat,12.2440564,102.5122822,85.1,91,33,1.34,TH,1675785589
67,wukari,7.8705196,9.7775523,100.02,7,93,7.47,NG,1675785590
68,kangaatsiaq,68.3091537,-53.4614913,-8.77,90,100,9.44,GL,1675785590
69,hurghada,27.222556,33.8307062,62.64,36,0,11.5,EG,1675785591
70,bengkulu,-3.7922858,102.2623797,77.56,85,99,8.46,ID,1675785592
71,aswan,24.091071,32.897306,65.57,24,0,9.22,EG,1675785592
72,novouzensk,50.462326,48.135532,12.47,91,20,15.77,RU,1675785593
73,kapaa,22.0747334,-159.3191601,70.2,92,14,1.01,US,1675785593
74,yellowknife,62.4540807,-114.377385,-2.02,78,100,8.05,CA,1675785594
75,lander,42.8330755,-108.730702,37.99,62,23,1.03,US,1675785594
76,kavieng,-2.573474,150.795224,79.84,82,100,4.63,PG,1675785595
77,quatre cocos,-20.2094657,57.7705601,81.21,79,42,14.54,MU,1675785596
78,samarai,-10.6106054,150.6619362,79.52,83,100,11.72,PG,1675785596
79,khatanga,71.9819205,102.4714765,-46.08,100,72,1.7,RU,1675785597
80,kaseda,42.5242929,-1.3674903,38.62,93,100,3.27,ES,1675785597
81,rio grande,-53.7856766,-67.7016369,57.24,41,20,21.85,AR,1675785598
82,hasaki,35.7529706,140.8201321,48.6,85,100,22.97,JP,1675785598
83,castro,45.802987,10.06706,43.23,51,23,3.0,IT,1675785599
84,yarim,14.2990691,44.3794492,57.85,60,19,4.61,YE,1675785599
85,coromandel,-18.473889,-47.200278,80.42,60,61,4.88,BR,1675785600
86,baykit,61.6808261,96.3830221,-0.99,99,100,1.61,RU,1675785601
87,bluff,-46.59882,168.3433685,51.93,78,80,27.58,NZ,1675785617
88,narsaq,60.9127453,-46.0452698,-7.35,59,78,9.82,GL,1675785633
89,roald,62.5838286,6.1241844,44.17,87,20,9.22,NO,1675785645
90,wichian buri,15.6646505,101.1114493,83.89,55,42,4.72,TH,1675785646
91,lavrentiya,65.5837793,-171.0058116,-13.47,90,100,4.65,RU,1675785647
92,nokaneng,-19.66215,22.190127,84.22,43,98,6.85,BW,1675785648
93,san cristobal,7.7756663,-72.2214154,73.27,43,44,6.87,VE,1675785648
94,soligalich,59.0777693,42.2861828,11.05,95,91,7.34,RU,1675785649
95,jamestown,-15.9277296,-5.7160872,73.26,67,16,16.11,SH,1675785650
96,puerto ayora,-0.7471674,-90.3134198,84.81,90,20,8.01,EC,1675785651
97,olafsvik,64.8959304,-23.7084345,28.04,64,100,39.44,IS,1675785652
98,korla,41.7238743,86.173541,32.63,72,100,2.3,CN,1675785652
99,perepravnaya,44.3340109,40.7836015,22.91,95,100,8.05,RU,1675785653
100,ostrovnoy,68.0544447,39.5129384,35.13,90,100,29.64,RU,1675785654
101,illoqqortoormiut,70.4850588,-21.9641992,3.52,73,99,8.66,GL,1675785655
102,nanortalik,60.1400246,-45.2428523,6.26,68,7,25.37,GL,1675785656
103,havoysund,70.9963105,24.6609576,35.83,76,88,50.49,NO,1675785656
104,point fortin,10.1759283,-61.6827286,86.04,76,77,9.95,TT,1675785658
105,itoman,26.106017,127.686066,67.62,77,75,11.5,JP,1675785658
106,mormugao,15.4081535,73.7929825,75.63,68,100,11.88,IN,1675785659
107,butaritari,2.9205375,172.91886331442205,81.21,79,100,23.11,KI,1675785660
108,amderma,69.7522076,61.662267280204404,8.55,90,100,29.19,RU,1675785660
109,awbari,26.5909391,12.7695658,68.97,24,100,13.71,LY,1675785661
110,aksarka,66.5582332,67.8051987,-5.04,96,82,11.27,RU,1675785662
111,jiuquan,39.7321262,98.4936839,27.32,49,97,4.94,CN,1675785665
112,elk point,42.6860746,-96.6827096,31.91,88,5,6.91,US,1675785673
113,provideniya,64.4237364,-173.2273726,-17.18,90,75,3.4,RU,1675785684
114,maniitsoq,65.4175454,-52.8967885,0.86,93,98,6.4,GL,1675785689
115,fairbanks,64.837845,-147.716675,3.6,80,100,3.44,US,1675785588
116,norman wells,65.282401,-126.832725,-12.96,77,100,0.0,CA,1675785701
117,yaan,7.383333,8.566667,99.77,8,84,6.4,NG,1675785702
118,uruguaiana,-29.7560726,-57.0867546,96.73,32,20,4.61,BR,1675785703
119,port pirie,-33.1791249,138.0058614,76.77,30,0,8.41,AU,1675785704
120,klaksvik,62.2266084,-6.5852705,45.64,79,80,42.01,FO,1675785705
121,ngama,4.1936854,11.1979507,96.21,19,11,1.45,CM,1675785705
122,vostok,-10.0620702,-152.31258164405466,81.03,73,5,13.47,KI,1675785706
123,arganil,40.2202451,-7.980700223101081,51.01,42,4,0.83,PT,1675785707
124,rosetta,31.404444,30.416389,56.39,49,97,20.15,EG,1675785708
125,sakakah,29.9784008,40.2047701,58.57,35,8,13.58,SA,1675785709
126,saint-philippe,45.3584499,-73.4790045,21.25,67,82,5.75,CA,1675785710
127,pandan,-3.2873871,104.1929841,75.34,95,100,1.19,ID,1675785710
128,batemans bay,-35.7072183,150.178289,66.18,92,100,4.45,AU,1675785715
129,kaitangata,-46.2817388,169.8464139,49.75,67,7,7.52,NZ,1675785717
130,palabuhanratu,-6.9882409,106.5503728,78.93,81,100,3.53,ID,1675785718
131,kurilsk,45.2290413,147.8751845,20.19,68,93,7.94,RU,1675785718
132,new norfolk,-42.7801998,147.0615332,56.93,60,46,2.24,AU,1675785719
133,mathathane,-22.268936,28.750023,91.33,26,71,7.07,BW,1675785722
134,port augusta,-32.4908819,137.7639874,76.19,30,0,5.17,AU,1675785727
135,bisalpur,26.2318384,73.3140849,68.27,22,3,4.18,IN,1675785730
136,cape town,-33.928992,18.417396,77.88,75,20,20.71,ZA,1675785744
137,murgab,38.1709568,73.9668836,-16.47,82,4,3.98,TJ,1675785746
138,daru,-9.069901,143.210029,76.3,93,100,11.63,PG,1675785755
139,north bend,47.4957757,-121.784889,47.1,96,100,5.01,US,1675785760
140,usinsk,65.995731,57.5571267,4.66,94,100,24.45,RU,1675785763
141,ayni,39.3933752,68.5375462,19.08,43,1,8.7,TJ,1675785763
142,ondorhaan,47.3256114,110.6649133,-4.77,91,4,5.37,MN,1675785767
143,severo-kurilsk,50.6683048,156.1154399,22.53,66,77,14.5,RU,1675785768
144,belyy yar,53.596436,91.382362,1.81,87,100,2.24,RU,1675785771
145,marcona,-15.2155331,-75.08303444567473,76.33,59,25,10.58,PE,1675785771
146,visby,57.6379361,18.297982,34.59,93,0,12.66,SE,1675785772
147,tongliao,43.6165326,122.2601837,15.84,44,0,6.93,CN,1675785773
148,dudinka,69.406067,86.175072,-10.37,100,94,3.2,RU,1675785774
149,chuy,-33.6937948,-53.4561114,85.21,40,3,6.62,UY,1675785775
150,georgetown,6.8137426,-58.1624465,84.49,70,20,16.11,GY,1675785776
151,sylacauga,33.1731716,-86.2516406,62.64,42,100,0.0,US,1675785748
152,offenburg,48.4716556,7.944378,40.64,63,0,9.22,DE,1675785777
153,kargasok,59.0598053,80.8708719,5.5,97,97,6.29,RU,1675785778
154,goleta,34.4358295,-119.8276389,59.38,50,0,3.0,US,1675785778
155,faanui,-16.48243875,-151.73383197031578,78.67,79,29,11.81,FR,1675785779
156,san quintin,30.5613719,-115.938162,58.62,36,0,2.33,MX,1675785780
157,pallasovka,50.045901,46.8896382,14.9,89,30,18.28,RU,1675785780
158,tasiilaq,65.6152573,-37.6378149,5.5,59,61,14.61,GL,1675785781
159,san patricio,27.9695325,-97.7731720386266,76.98,78,100,17.63,US,1675785785
160,nishihara,26.227791,127.76054,67.82,79,75,11.5,JP,1675785790
161,dandong,40.128668,124.3863404,28.56,43,21,7.02,CN,1675785793
162,kushiro,42.9849503,144.3820491,18.61,95,45,6.73,JP,1675785796
163,hobart,-42.8825088,147.3281233,57.0,65,100,10.36,AU,1675785771
164,bilibino,68.0550305,166.4448515,-37.39,100,100,0.43,RU,1675785800
165,manaure,11.7771128,-72.4469366,85.5,53,21,22.5,CO,1675785802
166,banamba,13.5485166,-7.446532,97.52,8,98,6.35,ML,1675785804
167,monte patria,-30.6944769,-70.9579593,84.51,45,0,7.31,CL,1675785809
168,lanigan,51.8457609,-105.033137,30.11,87,75,8.86,CA,1675785812
169,salalah,17.0174945,54.1010923,77.07,61,0,4.61,OM,1675785814
170,lompoc,34.6391501,-120.4579409,43.59,75,0,4.61,US,1675785815
171,vigrestad,58.5712263,5.6897326,45.23,93,100,3.04,NO,1675785815
172,saskylakh,71.9649533,114.0939433,-31.07,99,100,2.44,RU,1675785816
173,sept-iles,50.2109579,-66.3790642,15.96,78,20,8.05,CA,1675785817
174,punta alta,-38.8804693,-62.0744033,91.56,42,0,2.3,AR,1675785818
175,souillac,44.8980172,1.46943,51.12,67,20,6.85,FR,1675785819
176,canosa di puglia,41.219631,16.067466,42.58,52,58,11.72,IT,1675785820
177,saldanha,-32.9977778,17.9455556,75.47,86,100,23.71,ZA,1675785821
178,malanje,-9.5483991,16.3475335,73.67,68,86,5.84,AO,1675785822
179,jizan,16.894719,42.5579758,84.2,70,40,14.97,SA,1675785822
180,jonesboro,35.8272257,-90.6949871,55.26,78,97,11.05,US,1675785823
181,mehamn,71.0389923,27.8517589,35.55,87,40,44.87,NO,1675785824
182,batie,45.0628357,5.8195294,37.35,57,0,3.85,FR,1675785824
183,jaicos,-7.3584791,-41.1446059,89.26,41,99,4.52,BR,1675785825
184,namibe,-15.195064,12.1458085,74.14,69,100,12.3,AO,1675785825
185,juneau,58.3019496,-134.419734,36.21,94,75,10.36,US,1675785826
186,port lincoln,-34.7211905,135.8592218,64.0,81,0,13.62,AU,1675785827
187,gigmoto,13.7786693,124.3911728,78.08,81,100,8.99,PH,1675785828
188,anadyr,64.7316875,177.5060925,-18.53,69,40,11.18,RU,1675785828
189,stephenville,32.2191836,-98.2130634,62.83,95,100,10.36,US,1675785829
190,necochea,-38.5545494,-58.7392624,83.7,47,21,10.85,AR,1675785829
191,ribeira grande,37.8225227,-25.5194914,57.54,77,40,23.02,PT,1675785830
192,jurm,36.864768,70.834207,25.03,51,0,7.07,AF,1675785661
193,praya,14.9162811,-23.5095095,75.78,46,40,26.46,CV,1675785831
194,arua,44.0603921,-0.3508658,47.86,76,98,14.41,FR,1675785831
195,port moresby,-9.4743301,147.1599504,74.35,100,40,6.91,PG,1675785832
196,landskrona,55.8698007,12.8296734,36.01,83,27,9.31,SE,1675785833
197,hamilton,43.2560802,-79.8728583,40.75,72,100,14.97,CA,1675785369
198,belushya guba,71.5376984,52.3427343,32.18,99,100,20.42,RU,1675785834
199,san policarpo,12.1805518,125.5074292,78.75,80,100,10.87,PH,1675785834
200,iqaluit,63.74944,-68.521857,-31.05,66,40,2.3,CA,1675785835
201,henties bay,-22.1130313,14.2881683522115,68.07,79,63,10.22,NA,1675785835
202,la ronge,55.1005283,-105.2900485,12.38,85,75,5.75,CA,1675785836
203,kurumkan,54.326336,110.323257,-5.26,93,25,5.06,RU,1675785837
204,bethel,60.7922222,-161.7558333,1.74,85,100,12.66,US,1675785837
205,chumikan,54.7171986,135.3172842,-22.88,87,28,7.92,RU,1675785838
206,scottsbluff,41.862302,-103.6627088,37.78,67,0,10.0,US,1675785838
207,voskresenskoye,56.8383333,45.4330556,12.79,97,99,2.86,RU,1675785839
208,hithadhoo,1.7959425,73.38755195657038,81.28,75,100,10.45,MV,1675785840
209,fort nelson,58.8062066,-122.6942704,6.98,93,20,3.0,CA,1675785840
210,greenville,34.851354,-82.3984882,59.11,52,0,8.05,US,1675785273
211,russell,38.895289,-98.859806,40.69,70,0,10.36,US,1675785841
212,ponta delgada,37.7394344,-25.6683618,57.92,77,40,23.02,PT,1675785843
213,champasak,14.8872885,105.8765804,77.97,52,8,1.52,LA,1675785845
214,saint-pierre,48.3832725,7.4718731,40.71,54,3,5.26,FR,1675785849
215,bo rai,12.5761682,102.5388474,74.97,93,55,2.13,TH,1675785858
216,havre-saint-pierre,50.2463647,-63.6003951,6.75,60,0,6.91,CA,1675785859
217,acapulco,16.8680495,-99.8940182,81.88,57,0,4.61,MX,1675785861
218,laguna,-28.4837443,-48.7816572,80.35,64,0,10.04,BR,1675785862
219,victoria,48.4283182,-123.3649533,46.83,93,100,10.0,CA,1675785864
220,cozumel,20.5014305,-86.9435851,82.45,75,75,17.27,MX,1675785865
221,meulaboh,4.1481951,96.1339107,77.77,80,94,3.27,ID,1675785866
222,labuhan,-6.891973,112.9897177,77.88,89,100,9.46,ID,1675785867
223,kamloops,50.6758269,-120.339415,37.29,75,75,3.44,CA,1675785869
224,harer,9.3118397,42.1284445,66.7,31,55,15.03,ET,1675785870
225,ixtapa,16.8032586,-92.9053697,67.6,48,0,3.56,MX,1675785871
226,upernavik,72.7847392,-56.1469625,-14.3,94,99,7.18,GL,1675785872
227,maraba,-5.3462821,-49.1007401,84.4,84,75,2.3,BR,1675785873
228,koumra,8.9189081,17.5478111,99.23,7,14,6.24,TD,1675785874
229,khandyga,62.6477939,135.5750942,-46.53,100,99,2.42,RU,1675785876
230,egvekinot,66.3227382,-179.120131,-18.26,88,97,8.12,RU,1675785877
231,macas,-2.3046252,-78.1175466,76.39,64,40,4.61,EC,1675785878
232,den helder,52.9529894,4.8267592494488,42.98,80,1,3.44,NL,1675785878
233,tuktoyaktuk,69.4440189,-133.031904,-29.2,68,75,0.0,CA,1675785879
234,samusu,-13.9974088,-171.4288872,81.18,80,90,10.31,WS,1675785880
235,antalaha,-14.9012302,50.2810433,76.53,90,100,7.25,MG,1675785880
236,geraldton,-28.77035,114.6147159,71.76,83,40,13.8,AU,1675785881
237,leningradskiy,54.129108,79.236702,-6.9,100,93,5.39,RU,1675785881
238,achinsk,56.2694846,90.4953964,14.94,95,100,6.35,RU,1675785882
239,yumen,40.2916528,97.0448526,27.9,50,100,4.63,CN,1675785883
240,issoire,45.5432973,3.2502213,45.61,59,5,6.2,FR,1675785884
241,majalgaon,29.5302074,79.408772,53.33,53,0,2.42,IN,1675785884
242,bredasdorp,-34.533055,20.042778,72.54,63,100,12.06,ZA,1675785885
243,kahului,20.8894101,-156.4727118,74.75,83,0,15.01,US,1675785831
244,gouyave,12.1665178,-61.7297144,81.37,78,75,13.8,GD,1675785886
245,panama city,30.1600827,-85.6545729,68.04,73,69,5.99,US,1675785726
246,kisangani,0.5184021,25.2057292,89.28,37,73,1.16,CD,1675785887
247,itarema,-2.9224684,-39.9152184,84.13,67,100,12.01,BR,1675785888
248,santa isabel do rio negro,-0.4160389,-65.0153096,84.0,75,59,3.58,BR,1675785888
249,tambovka,41.483284,43.8060028,11.95,96,100,3.78,GE,1675785889
250,belmonte,39.5592831,-2.7038117,44.55,65,99,13.02,ES,1675785889
251,skowhegan,44.765262,-69.719238,24.58,57,1,4.65,US,1675785890
252,altstatten,47.3782189,9.5413964,35.15,84,0,4.61,CH,1675785891
253,prince rupert,54.3126572,-130.32549,36.84,86,75,12.66,CA,1675785891
254,carlagan,14.9763896,122.0433117,77.07,88,82,7.34,PH,1675785892
255,waki,34.2024049,132.2205023,44.55,81,40,5.75,JP,1675785892
256,omaha,41.2587459,-95.9383758,37.69,65,0,13.8,US,1675785493
257,dickinson,46.8791756,-102.7896242,34.41,75,0,18.41,US,1675785893
258,ornskoldsvik,63.2888613,18.7160209,29.53,93,0,6.91,SE,1675785894
259,nizhneyansk,71.440445,136.130646,-35.52,100,98,5.91,RU,1675785894
260,tsihombe,-25.318547,45.484057,74.7,83,100,6.22,MG,1675785895
261,sabla,43.60574975,28.509791183980244,29.64,75,81,16.17,BG,1675785895
262,brae,60.3963461,-1.3536585,44.26,70,8,21.63,GB,1675785896
263,parksville,49.3179514,-124.3117397,46.81,99,100,26.46,CA,1675785897
264,general pico,-35.6591085,-63.7576103,96.55,18,0,6.31,AR,1675785897
265,saint george,12.0535331,-61.751805,81.48,78,75,13.8,GD,1675785898
266,talnakh,69.4939889,88.3907607,-6.68,97,98,6.15,RU,1675785898
267,zhigansk,66.76564,123.3741,-51.86,100,94,2.06,RU,1675785899
268,bairiki,1.3296193,172.9777542,82.42,83,20,13.8,KI,1675785900
269,taoudenni,22.6762333,-3.9805269,80.91,13,75,9.84,ML,1675785900
270,akkermanovka,51.1885111,58.2163661,1.29,100,53,4.45,RU,1675785901
271,havelock,34.8785,-76.9014457,57.18,65,0,3.44,US,1675785902
272,sao joao da barra,-21.6348588,-41.0487079,87.91,76,98,6.22,BR,1675785905
273,avarua,-21.2074736,-159.7708145,78.78,89,20,6.91,CK,1675785878
274,hoa binh,10.6312134,107.3746446,74.39,88,45,9.04,VN,1675785907
275,taman,45.2158646,36.7191326,30.7,93,100,28.83,RU,1675785909
276,rethimnon,35.3676472,24.4736079,44.22,72,100,19.19,GR,1675785910
277,atasu,40.813793,39.669979,34.18,87,100,7.67,TR,1675785912
278,faya,17.9209323,19.0953202,80.56,18,0,21.85,TD,1675785913
279,adrar,27.8733807,-0.2874884,66.42,27,40,4.61,DZ,1675785914
280,bac lieu,9.2824882,105.7260685,76.06,87,78,8.5,VN,1675785915
281,sabang,5.8927453,95.3225751,79.7,81,71,8.23,ID,1675785916
282,lemesos,34.6852901,33.0332657,51.75,46,75,13.8,CY,1675785917
283,atar,20.5181943,-13.0543928,77.52,12,18,14.0,MR,1675785918
284,haibowan,39.6897525,106.8204113,29.14,47,10,5.53,CN,1675785919
285,cayenne,4.9371143,-52.3258307,84.22,70,40,14.97,FR,1675785920
286,husavik,66.0433168,-17.3410402,28.15,68,95,32.57,IS,1675785921
287,iranshahr,27.2069903,60.6882515,75.49,19,0,4.61,IR,1675785922
288,bubaque,11.29969595,-15.833543367212418,77.43,57,31,15.28,GW,1675785922
289,natal,-5.805398,-35.2080905,86.65,74,40,20.71,BR,1675785923
290,longyearbyen,78.2231558,15.6463656,25.07,74,75,42.57,NO,1675785926
291,college,45.32664695,-75.83855656986515,21.61,71,20,14.0,CA,1675785927
292,mys shmidta,68.8928813,-179.4130958,-20.58,96,100,13.96,RU,1675785928
293,merke,42.8713714,73.1738583,31.77,68,23,6.46,KZ,1675785929
294,port hedland,-20.3111814,118.5801181,82.44,89,5,5.75,AU,1675785931
295,yabelo,4.892569,38.094989,74.53,18,32,8.77,ET,1675785934
296,mana,43.0818375,0.9504994,46.27,74,87,8.1,FR,1675785935
297,conceicao do araguaia,-8.2696905,-49.2676864,88.84,59,67,1.83,BR,1675785936
298,turayf,31.6725877,38.6615532,43.05,70,75,16.11,SA,1675785937
299,alto araguaia,-17.3156528,-53.2169365,80.96,65,98,5.35,BR,1675785937
300,foumban,5.7282262,10.8971603,89.19,10,18,3.42,CM,1675785938
301,yibin,28.7701941,104.6289601,53.11,86,100,1.14,CN,1675785939
302,coquimbo,-29.9531928,-71.3379884,71.47,68,0,12.66,CL,1675785939
303,cajamarca,-7.1566682,-78.517306,65.88,59,40,6.91,PE,1675785940
304,palmer,61.5995703,-149.11109,22.12,73,0,13.8,US,1675785660
305,surovikino,48.605141,42.844147,18.23,86,76,20.85,RU,1675785941
306,rawson,-43.2991348,-65.1056655,81.77,28,30,13.2,AR,1675785942
307,alice springs,-23.6983884,133.8812885,78.35,65,46,5.75,AU,1675785943
308,aasiaat,68.709588,-52.8512976,-6.56,91,100,8.39,GL,1675785943
309,codrington,51.508188,-2.3936619,47.75,72,3,1.01,GB,1675785944
310,tianpeng,28.8838283,112.3423091,46.58,88,100,4.61,CN,1675785945
311,bosaso,11.27848,49.179952,75.74,77,24,5.95,SO,1675785946
312,guane,22.2020234,-84.0829154,81.77,59,30,14.61,CU,1675785946
313,katsuura,35.1521846,140.3207449,51.48,84,100,13.89,JP,1675785947
314,kloulklubed,7.0415131,134.2564595,82.09,77,100,18.05,PW,1675785948
315,coihaique,-45.5711804,-72.0684863,71.85,46,40,8.05,CL,1675785948
316,darlowo,54.42914965,16.403846355275693,33.94,83,99,9.22,PL,1675785949
317,ilulissat,69.2197127,-51.0986385,-9.11,77,75,6.91,GL,1675785950
318,rio gallegos,-51.64607595,-69.26322885452636,66.27,42,20,6.91,AR,1675785950
319,ca mau,9.1792215,105.1457909,75.81,84,92,5.14,VN,1675785951
320,ghanzi,-21.6968123,21.6457062,87.04,33,76,2.53,BW,1675785952
321,sinnamary,5.3770561,-52.9571586,80.08,83,63,10.56,FR,1675785952
322,bluefields,12.0131543,-83.764907,82.35,78,75,6.91,NI,1675785953
323,paamiut,61.994618,-49.6659478,3.78,80,100,6.82,GL,1675785954
324,maine-soroa,13.2151567,12.0280819,85.75,12,93,14.61,NE,1675785954
325,tuatapere,-46.1323096,167.6907627,51.19,79,85,10.07,NZ,1675785955
326,tarudant,30.470651,-8.877922,64.36,34,1,18.5,MA,1675785956
327,calawag,10.6044835,119.6490569,78.53,83,82,10.0,PH,1675785956
328,grindavik,63.844239,-22.4317498,30.02,69,75,27.63,IS,1675785957
329,plouzane,48.3817165,-4.6212044,46.63,52,0,18.41,FR,1675785957
330,alofi,-19.0534159,-169.919199,75.7,100,100,5.75,NU,1675785880
331,vestmannaeyjar,63.42704985,-20.269317184750797,31.91,93,100,26.46,IS,1675785958
332,general roca,-39.0266276,-67.5754863,98.56,13,0,8.68,AR,1675785959
333,vestmanna,62.156,-7.166,45.64,81,100,24.16,FO,1675785960
334,teahupoo,-17.840272,-149.22237039798483,75.78,70,60,8.39,FR,1675785960
335,witu,-2.3877454,40.4393028,80.76,75,18,12.46,KE,1675785961
336,jiddah,21.5810088,39.1653612,73.31,49,0,16.11,SA,1675785962
337,leresti,45.328833,25.0717585,18.12,87,97,5.39,RO,1675785963
338,cabedelo,-6.97324,-34.8351609,88.48,64,87,15.88,BR,1675785965
339,wamba,41.676222,-4.9172803,43.99,58,40,14.97,ES,1675785966
340,xuddur,4.1237042,43.8915563,84.51,29,13,10.18,SO,1675785967
341,abapo,-18.9058852,-63.3993393,83.79,60,98,3.83,BO,1675785969
342,hirata,37.2219658,140.5756791,36.37,97,100,4.68,JP,1675785972
343,broken hill,-31.965,141.4511111,74.3,26,0,9.42,AU,1675785974
344,port hawkesbury,45.6180851,-61.3574589,29.91,60,0,16.11,CA,1675785976
345,pahrump,36.2083012,-115.9839128,41.5,51,0,3.0,US,1675785977
346,nyrob,60.7430341,56.73349,1.13,99,98,3.24,RU,1675785979
347,zhezkazgan,47.7964459,67.70618078166055,-1.35,98,48,6.89,KZ,1675785981
348,toksovo,60.1588778,30.5255831,27.5,90,94,9.13,RU,1675785982
349,laguna de duero,41.582811,-4.7214404,44.94,59,40,14.97,ES,1675785983
350,asau,46.4388969,26.4008405,25.68,97,100,2.64,RO,1675785986
351,nabire,-3.360285,135.5023653,75.61,92,100,2.48,ID,1675785988
352,crotone,39.0806223,17.127196,43.05,60,63,20.09,IT,1675785989
353,nome,64.5011111,-165.4063889,-3.84,84,0,0.0,US,1675785990
354,pangody,65.856575,74.494797,-13.92,100,100,5.88,RU,1675785991
355,rio piracicaba,-19.928889,-43.173889,81.9,66,100,3.85,BR,1675785991
356,nalut,31.8637865,10.9827903,59.9,31,83,11.39,LY,1675785992
357,tromso,69.651648,18.9558186,37.31,70,75,19.57,NO,1675785993
358,makinsk,52.63287,70.418213,3.34,98,98,1.88,KZ,1675785994
359,tiksi,71.636604,128.868546,-26.7,99,100,3.91,RU,1675785994
360,srednekolymsk,67.455497,153.7071456,-28.53,97,100,5.17,RU,1675785995
361,puro,42.7328012,13.034065,34.57,70,2,4.94,IT,1675785996
362,slave lake,55.2810741,-114.7717876,32.0,80,100,6.91,CA,1675785997
363,bure,48.5041154,5.3567737,42.15,54,0,9.75,FR,1675785997
364,chokurdakh,70.6193824,147.902397,-42.27,100,99,3.98,RU,1675785998
365,lebu,-37.6099644,-73.6559477,64.98,66,0,18.25,CL,1675785998
366,margate,51.3878174,1.3819699,44.01,85,12,1.99,GB,1675785999
367,praia da vitoria,38.739237599999996,-27.156264396780458,53.62,71,75,18.19,PT,1675786000
368,mount isa,-20.7289898,139.4931522,80.46,78,94,8.05,AU,1675786001
369,tutoia,-2.761413,-42.275531,83.12,71,98,10.78,BR,1675786002
370,raudeberg,61.9849433,5.13778,42.01,35,94,18.1,NO,1675786003
371,ciudad bolivar,8.1028532,-63.5469562,87.01,48,89,10.13,VE,1675786003
372,wilmington,39.7459468,-75.546589,40.41,64,0,3.44,US,1675785943
373,micheweni,-4.9828117,39.8331878,80.91,75,100,17.92,TZ,1675786004
374,dhidhdhoo,6.889046,73.1133538,80.85,71,84,10.56,MV,1675786005
375,ariquemes,-9.9076522,-63.033069,73.96,97,100,0.69,BR,1675786006
376,torbay,47.6576953,-52.726986,23.92,84,100,18.99,CA,1675786006
377,hasilpur,29.6889811,72.5525446,61.18,30,1,2.06,PK,1675786007
378,dongkan,18.366843,105.969977,70.0,97,9,2.93,VN,1675786008
379,evensk,61.919209,159.235931,-22.23,80,32,8.97,RU,1675786008
380,port hardy,50.7244402,-127.4976081,44.58,93,100,14.97,CA,1675786009
381,cabo san lucas,22.8938884,-109.9200604,71.85,68,40,0.0,MX,1675786010
382,taut,46.7198995,21.8384466,30.56,88,8,5.17,RO,1675786010
383,sitka,57.0524973,-135.337612,33.62,80,40,0.0,US,1675786011
384,santiago,9.8694792,-83.7980749,76.57,100,98,7.18,CR,1675786011
385,powell river,49.835676,-124.524412,47.59,100,100,17.27,CA,1675786012
386,charters towers,-20.0714089,146.2709824,74.93,88,73,6.64,AU,1675786012
387,gat,45.7023377,18.3246957,32.41,49,69,2.73,HR,1675786013
388,bilma,18.69293,12.91872,81.97,12,52,4.16,NE,1675786014
389,boali,4.8089514,18.1140203,100.83,8,6,6.73,CF,1675786014
390,koungou,-12.735753,45.2067459,82.18,83,75,8.05,FR,1675786015
391,adra,36.748834,-3.0203617,53.38,68,100,10.11,ES,1675786015
392,hami,42.817404,93.5142008,33.12,47,100,2.33,CN,1675786016
393,kouroussa,10.6519303,-9.8811522,99.1,13,67,2.33,GN,1675786016
394,moron,18.5602014,-74.2581337,85.05,51,0,7.81,HT,1675786017
395,los llanos de aridane,28.6592222,-17.9151945,60.55,66,75,13.8,ES,1675786018
396,grand river south east,-20.2907247,57.7851931,80.49,79,43,14.54,MU,1675786018
397,aldan,58.608414,125.388222,-24.75,98,100,2.21,RU,1675786019
398,jacareacanga,-6.2196518,-57.758625,75.33,91,100,2.13,BR,1675786019
399,xining,36.617331,101.7761976,29.95,44,100,5.77,CN,1675786020
400,lagoa,37.13258125,-8.45505094811731,58.68,75,17,7.07,PT,1675786021
401,agadir,30.4211144,-9.5830626,66.29,42,20,17.27,MA,1675786021
402,vila franca do campo,37.7171624,-25.4335352,57.61,76,77,15.32,PT,1675786022
403,kidal,18.4408358,1.4075395,92.62,8,100,10.56,ML,1675786023
404,lithakia,37.7197242,20.8310438,45.16,61,40,0.0,GR,1675786024
405,hobyo,5.349526,48.526366,77.23,77,25,13.98,SO,1675786025
406,verkhnyaya inta,65.988403,60.323444,9.5,83,100,16.75,RU,1675786026
407,birnin kebbi,12.4573462,4.2006114,94.3,8,100,11.65,NG,1675786028
408,kargala,56.6208,83.960686,12.78,95,100,6.78,RU,1675786029
409,moroni,-11.6931255,43.2543044,79.59,81,100,7.25,KM,1675786029
410,jutai,-2.7471478,-66.7721255,81.97,82,97,3.91,BR,1675786030
411,bonthe,7.527274,-12.501955,84.72,55,71,12.55,SL,1675786031
412,saint anthony,45.0283001,-93.2187368,31.66,78,0,12.66,US,1675786032
413,scarborough,54.2820009,-0.4011868,45.97,83,87,1.01,GB,1675786034
414,hegra,63.4641248,11.1142474,37.85,93,75,5.75,NO,1675786036
415,santa rosalia,26.6817479,-105.456666,56.16,24,82,3.04,MX,1675786039
416,westport,41.1414855,-73.3578955,40.03,44,71,5.99,US,1675786039
417,aghiresu,46.8721445,23.2376556,24.89,91,22,3.58,RO,1675786040
418,shenjiamen,29.9479371,122.2798413,47.98,78,76,10.04,CN,1675786041
419,karasjok,69.4720741,25.5183286,31.19,78,38,26.17,NO,1675786042
420,lincoln,40.8088861,-96.7077751,40.26,67,4,8.01,US,1675785666
421,aripuana,-10.175806,-59.4439663,74.77,88,100,2.08,BR,1675786043
422,zhanaozen,43.3381034,52.8556219,42.91,61,100,17.96,KZ,1675786044
423,sao filipe,14.8952963,-24.4969361,69.39,63,0,13.62,CV,1675786046
424,attawapiskat,52.9244075,-82.4270112,28.4,86,100,12.66,CA,1675786046
425,idritsa,56.3333942,28.8920106,27.39,86,100,4.83,RU,1675786047
426,aragarcas,-15.8957166,-52.2514538,87.04,61,73,2.59,BR,1675786048
427,monster,51.9625101,7.6251879,39.4,69,0,2.3,DE,1675786049
428,santa maria,-29.6860512,-53.8069214,94.51,21,0,5.73,BR,1675786050
429,san jose,37.3361663,-121.890591,51.89,82,20,0.0,US,1675786051
430,broome,-17.9566909,122.2240181,82.29,89,100,3.44,AU,1675786052
431,somotillo,13.0445947,-86.9050544,91.51,35,37,9.28,NI,1675786053
432,esperance,-33.858228,121.8931606,66.0,89,23,8.81,AU,1675786053
433,calabozo,8.9179829,-67.4173328,90.59,39,65,9.64,VE,1675785985
434,lata,18.3983393,76.562087,76.05,27,91,7.38,IN,1675786054
435,sabha,-18.1415884,178.4421662,74.68,100,75,6.91,FJ,1675786057
436,turbat,26.0027894,63.0505609,73.33,28,1,4.9,PK,1675786058
437,hay river,60.8155874,-115.7866099,-2.2,78,100,13.8,CA,1675786059
438,gamba,28.2764084,88.5165114,18.05,57,0,7.85,CN,1675786059
439,kazalinsk,45.76255,62.101181,22.06,87,100,16.28,KZ,1675786060
440,emilio carranza,19.971111,-96.611389,76.75,65,1,5.75,MX,1675786061
441,marzuq,14.392507,46.470115,68.07,41,42,8.59,YE,1675786061
442,otatitlan,18.177101,-96.0338646,76.59,69,0,3.49,MX,1675786062
443,dingle,11.0000758,122.6717839,73.76,91,100,7.49,PH,1675786063
444,kosino,55.7164559,37.8590219,23.23,98,38,2.42,RU,1675786063
445,moose factory,51.2602173,-80.6032819,26.58,80,100,17.27,CA,1675786064
446,manado,1.4900578,124.8408708,74.25,100,40,4.61,ID,1675786064
447,chaozhou,23.6566146,116.6205482,62.98,85,46,2.26,CN,1675786065
448,vaitupu,-7.4769458,178.6807836433052,82.4,73,88,22.03,TV,1675786065
449,saint-joseph,49.5344534,-1.529802,43.36,65,0,12.66,FR,1675786066
450,kargat,55.1929899,80.2828252,4.8,97,93,6.58,RU,1675786067
451,ijaki,22.9372399,57.7570944,77.23,27,30,5.75,OM,1675786067
452,bodden town,19.2843717,-81.2604411,84.22,71,40,18.41,KY,1675786068
453,dakar,14.693425,-17.447938,81.48,65,60,19.77,SN,1675786068
454,cap malheureux,-19.9859951,57.619612,80.46,78,22,7.0,MU,1675786069
455,kamaishi,39.2757463,141.8858151,36.32,98,100,7.47,JP,1675786070
456,puerto del rosario,28.4993424,-13.8599051,67.95,45,20,11.5,ES,1675786070
457,nianzishan,47.514833,122.8809284,0.99,86,10,5.17,CN,1675786071
458,yenagoa,4.9334651,6.2747786,91.85,43,63,7.9,NG,1675786071
459,los alamos,35.893533500000004,-106.28970107056452,29.59,73,100,14.97,US,1675786072
460,toulepleu,6.580899,-8.4150175,89.1,44,93,1.72,CI,1675786073
461,bongouanou,6.6475288,-4.2046603,88.59,44,86,2.3,CI,1675786073
462,hare bay,48.8564255,-54.0068259,15.46,63,69,11.34,CA,1675786074
463,kovdor,67.563049,30.474108,36.52,89,100,16.69,RU,1675786074
464,vila velha,-20.3297037,-40.2920174,89.55,69,20,16.11,BR,1675786075
465,genhe,51.3346874,121.8112468,-13.43,99,88,3.36,CN,1675786075
466,araouane,18.9041878,-3.5264658,88.84,8,46,9.64,ML,1675786076
467,jinji,32.5604241,119.0688907,43.36,80,100,6.8,CN,1675786076
468,kommunar,59.6221955,30.3919223,27.93,92,82,9.37,RU,1675786077
469,esna,25.2936689,32.5531993,59.2,28,100,10.4,EG,1675786078
470,najran,17.5439809,44.2246817,77.07,20,26,5.03,SA,1675786078
471,walvis bay,-22.9542501,14.5074577,69.1,73,30,11.14,NA,1675786079
472,nosy varika,-20.5829067,48.5322582,76.71,81,100,4.45,MG,1675786079
473,manoel urbano,-8.838755,-69.2619465,83.35,68,88,4.23,BR,1675786080
474,pierre,44.3683644,-100.351136,38.86,68,0,9.22,US,1675786080
475,kerema,58.89595185,22.943522343623506,34.99,93,100,9.22,EE,1675786081
476,harper,41.3624875,-92.0510088,38.1,80,98,11.97,US,1675786082
477,hambantota,6.1249126,81.1242563,79.12,94,20,6.91,LK,1675786083
478,cleburne,32.357365099999996,-97.40912169631659,61.56,95,100,10.0,US,1675786084
479,dalby,-27.1822593,151.2634168,69.98,75,76,1.99,AU,1675786085
480,chicama,-7.843424,-79.1451857,70.29,61,76,7.36,PE,1675786087
481,blyth,55.1270903,-1.5099726,49.68,75,75,11.5,GB,1675786088
482,porto santo,33.0657845,-16.336223627136313,61.41,63,40,19.57,PT,1675786089
483,tumaco,1.8077554,-78.7705977,83.21,69,79,5.32,CO,1675786090
484,yangambi,0.7658281,24.4733629,86.49,41,84,2.73,CD,1675786091
485,ati,49.0154807,4.1278042,44.2,58,0,6.38,FR,1675786093
486,am timan,11.0396368,20.2826429,95.94,8,15,5.59,TD,1675786094
487,smithers,54.7792074,-127.1760991,18.68,98,92,0.74,CA,1675786096
488,ishigaki,24.3382831,124.1577569,68.38,81,100,17.4,JP,1675786097
489,bonnyville,54.267925,-110.741515,31.78,85,54,12.1,CA,1675786099
490,eydhafushi,5.10263945,73.07018031022065,80.87,73,91,13.15,MV,1675786101
491,petropavlovsk-kamchatskiy,53.0199838,158.6471356,2.39,83,64,11.48,RU,1675786102
492,neepawa,50.2319353,-99.4637261,18.5,90,83,5.06,CA,1675786103
493,kolhapur,16.7028412,74.2405329,71.29,45,98,5.75,IN,1675786042
494,batticaloa,7.7356027,81.6941956,78.39,85,48,8.55,LK,1675786105
495,ahipara,-35.1664105,173.1562074,64.87,76,96,4.92,NZ,1675786107
496,gualeguay,-33.1504259,-59.3106789,98.94,14,45,7.14,AR,1675786108
497,clyde river,46.2239354,-63.2576799,24.46,64,100,17.0,CA,1675786109
498,letterkenny,54.9517933,-7.7354381,49.89,73,95,6.35,IE,1675786110
499,bucak,37.4567447,30.5855392,30.7,70,38,8.55,TR,1675786112
500,ngukurr,-14.7341439,134.7323402,83.91,56,81,9.46,AU,1675786112
501,te anau,-45.41449,167.717489,50.04,78,95,6.89,NZ,1675786113
502,caconda,-13.7388452,15.0619677,62.98,61,100,4.03,AO,1675786115
503,luganville,-15.5121107,167.1784414,77.11,83,100,3.44,VU,1675786116
504,urusha,54.052319,122.889702,-23.1,98,96,3.0,RU,1675786118
505,tarko-sale,64.9219991,77.779459,-16.64,100,55,8.57,RU,1675786119
506,homer,59.6440876,-151.5401477,31.48,93,100,0.0,US,1675786119
507,ulety,51.35854,112.485115,3.4,96,82,5.46,RU,1675786120
508,igrim,63.191513,64.424301,-13.43,100,51,3.78,RU,1675786121
509,gairo,39.847052,9.507244,41.29,72,100,11.72,IT,1675786122
510,ajaccio,41.9263991,8.7376029,53.37,50,20,10.36,FR,1675786123
511,kawalu,-1.9593,123.8495,83.43,76,99,13.98,ID,1675786123
512,baijiantan,45.634206,85.260773,12.36,93,100,3.24,CN,1675786124
513,okmulgee,35.6234738,-95.960341,44.64,81,100,9.22,US,1675786125
514,lerwick,60.1531357,-1.1427296,46.42,73,19,20.56,GB,1675786125
515,hailun,47.459421,126.9655598,-14.64,100,51,1.99,CN,1675786126
516,amahai,-3.3081717,129.0010636,74.97,85,100,4.61,ID,1675786127
517,gurlan,41.8447222,60.3898845,48.27,54,97,20.29,UZ,1675786127
518,bathsheba,13.2129361,-59.5227245,82.8,65,40,19.57,BB,1675786128
519,ossora,59.247414,163.069931,-21.08,89,88,5.61,RU,1675786128
520,carballo,43.2134123,-8.6891286,54.93,63,10,8.01,ES,1675786129
521,tomari,47.7612087,142.063478,11.3,80,46,4.7,RU,1675786130
522,jalu,29.0331149,21.5482209,58.55,42,61,9.28,LY,1675786130
523,lodwar,3.1166086,35.6000028,91.89,23,5,9.06,KE,1675786131
524,ust-kuyga,70.00177,135.549835,-48.1,100,100,5.75,RU,1675786132
525,huarmey,-10.0687481,-78.152199,76.68,73,39,8.9,PE,1675786132
526,tunceli,39.1060641,39.5482693,27.48,92,100,2.59,TR,1675786133
527,grand forks,47.9078244,-97.0592028,21.42,81,75,6.91,US,1675786133
528,harbour breton,47.4710255,-55.8257953,21.76,71,96,21.03,CA,1675786134
529,rawannawi,2.0520799,173.2627529,80.73,80,100,23.33,KI,1675786134
530,santa cruz,28.469648,-16.2540884,66.13,84,75,12.66,ES,1675786135
531,kungurtug,50.5986817,97.5254386,-10.3,98,60,1.97,RU,1675786136
532,bagdarin,54.443378,113.590469,-10.5,94,6,4.47,RU,1675786136
533,dumas,35.8630199,-101.9663192,41.65,69,0,11.5,US,1675786137
534,sawakin,19.103071,37.331236,73.31,61,90,16.44,SD,1675786137
535,bihoro,43.8232954,144.1083256,9.79,98,96,3.13,JP,1675786138
536,cumpas,29.9940228,-109.7796367,51.51,34,0,7.49,MX,1675786139
537,arkhangelsk,64.543022,40.537121,28.51,86,75,8.95,RU,1675786139
538,merauke,-8.4902766,140.395582,77.14,92,100,9.46,ID,1675786140
539,makakilo city,21.3469444,-158.0858333,73.72,73,40,12.66,US,1675786141
540,zanjan,36.6699809,48.4859398,31.77,78,100,13.22,IR,1675786141
541,umzimvubu,-30.82491,28.92177617804983,62.33,94,89,1.79,ZA,1675786143
542,plettenberg bay,-34.052778,23.369444,69.21,87,91,6.71,ZA,1675786144
543,sydney,-33.8698439,151.2082848,72.28,80,0,6.91,AU,1675786147
544,bargal,11.286823,51.07795,76.26,76,98,7.11,SO,1675786153
545,hualmay,-11.0967129,-77.6129018,77.59,69,11,8.93,PE,1675786154
546,portland,45.5202471,-122.674194,49.42,77,100,11.01,US,1675785591
547,aron,48.2962217,-0.5570789,42.51,60,0,10.31,FR,1675786157
548,gusau,12.1658358,6.6606398,92.23,8,100,15.66,NG,1675786158
549,nurota,40.5590414,65.6860362,47.16,40,3,7.49,UZ,1675786160
550,tura,47.3900474,0.6889268,45.18,64,0,9.22,FR,1675786162
551,edd,13.930794,41.690461,80.15,62,31,7.96,ER,1675786163
552,urumqi,43.419754,87.319461,14.86,75,100,5.79,CN,1675786164
553,clarence town,23.0917159,-74.960639,76.19,71,93,23.73,BS,1675786165
554,zykovo,61.3193778,43.7206259,16.3,94,100,9.48,RU,1675786168
555,pasil,17.3890052,121.1581968,68.61,97,49,1.43,PH,1675786169
556,kutum,14.2108373,24.649584,75.18,15,33,13.87,SD,1675786171
557,baihar,22.1050116,80.5481854,64.54,34,0,0.74,IN,1675786172
558,uchaly,54.316597,59.384636,9.28,97,100,1.72,RU,1675786174
559,san-pedro,33.7358518,-118.2922934,64.18,50,0,3.44,US,1675786176
560,midyat,37.4152129,41.3734423,36.9,96,100,6.98,TR,1675786177
561,aguimes,27.9049541,-15.4445131,65.03,49,75,13.8,ES,1675786178
562,hovd,48.0006353,91.6452415,1.24,86,13,2.59,MN,1675786179
563,touros,-5.1998625,-35.4595051,86.97,51,70,16.6,BR,1675786180
564,dar es salaam,-6.8160837,39.2803583,81.57,76,82,11.12,TZ,1675786180
565,athabasca,54.7214539,-113.2857941,31.82,83,80,9.35,CA,1675786181
566,kulhudhuffushi,6.6233167,73.06946631896413,80.92,70,66,11.01,MV,1675786181
567,alpena,45.0616794,-83.4327528,40.17,91,100,11.5,US,1675786182
568,ola,35.0323119,-93.2232345,60.89,85,100,3.83,US,1675786183
569,novikovo,51.1536804,37.8878869,15.78,91,26,10.27,RU,1675786184
570,nara,34.6845445,135.8048359,48.49,49,42,2.1,JP,1675786184
571,placido de castro,-10.3239154,-67.1824196,88.9,54,87,3.87,BR,1675786185
572,lahaina,20.8738769,-156.677678,74.79,90,2,9.73,US,1675786186
573,astoria,46.1882007,-123.8319802,49.42,87,100,20.71,US,1675786187
574,congleton,53.1631463,-2.2110691,48.94,73,94,1.99,GB,1675786187
575,biak,-1.1836086,136.0816321,78.06,86,100,5.66,ID,1675786188
576,turukhansk,65.7934285,87.9589375,5.34,95,100,8.03,RU,1675786188
577,nyurba,63.286648,118.354149,-39.35,100,100,1.05,RU,1675786189
578,jumla,29.276848,82.1822622,36.05,85,41,4.7,NP,1675786190
579,namie,37.4945619,141.0005837,41.79,89,100,8.81,JP,1675786190
580,les cayes,18.1944428,-73.7511601,82.74,58,3,9.69,HT,1675786191
581,ziro,27.538668,93.815355,42.8,92,97,2.8,IN,1675786191
582,vangaindrano,-23.3503159,47.6043136,73.76,87,100,3.47,MG,1675786192
583,miandrivazo,-19.5312416,45.4587681,79.14,82,100,2.82,MG,1675786193
584,rocha,-34.4810095,-54.3365608,92.7,26,2,2.33,UY,1675786193
585,vondrozo,-22.8204183,47.3210914,70.05,97,100,2.71,MG,1675786194
586,gebog,48.5921279,-4.5756847,47.01,61,0,18.41,FR,1675786194
587,veinticinco de mayo,-27.377466849999998,-54.742910291181374,96.89,17,0,3.71,AR,1675786195
588,muroto,33.2898523,134.1522806,52.39,77,48,1.28,JP,1675786195
589,rudnichnyy,59.698711,60.288403,-2.38,100,43,3.02,RU,1675786196
590,dawei,14.0797232,98.1990191,73.02,85,5,3.22,MM,1675786196
591,abay,43.211494,76.761475,25.2,73,33,4.41,KZ,1675786197
592,yekaterinoslavka,47.950008,135.129501,-3.75,98,95,8.99,RU,1675786198
593,cockburn town,21.4607723,-71.1399956,77.36,74,0,18.45,TC,1675786198
594,sao felix do xingu,-6.6386974,-51.9787582,81.9,87,68,3.38,BR,1675786199
595,tecoanapa,16.9875,-99.258889,82.38,45,0,0.49,MX,1675786199
596,waddan,29.1613826,16.141311,59.76,36,100,11.36,LY,1675786200
597,salamanca,40.9651572,-5.6640182,48.78,36,20,11.5,ES,1675785951
598,de-kastri,51.475426,140.768982,-0.24,99,100,0.98,RU,1675786202
599,bandarbeyla,9.4952646,50.8127815,76.41,74,81,13.22,SO,1675786205
600,poronaysk,49.2216366,143.1015759,-9.81,98,99,2.59,RU,1675786209
601,isangel,-19.5410863,169.2810885,77.54,85,100,2.8,VU,1675786210
602,okhotsk,59.3643921,143.2410816,-11.43,88,99,9.84,RU,1675786211
603,albion,54.31536155,-1.9180234948012402,46.44,86,57,9.28,GB,1675786212
604,verkhnevilyuysk,63.4497609,120.3146678,-39.95,100,99,2.15,RU,1675786214
605,nelson,-41.2710849,173.2836756,57.85,81,0,8.37,NZ,1675786216
606,sorong,-0.8634105,131.2544805,78.48,84,100,1.68,ID,1675786217
607,vire,48.8517468,-0.8872594458318377,42.28,57,0,9.15,FR,1675786218
